plot_name,latitude,longitude,area_hectares
North Ridge Plot,47.6062,-122.3321,2.5
Cascade Foothills,47.4799,-121.7881,3.2
Olympic Peninsula,47.8021,-124.1620,4.1
Mount Rainier East,46.8523,-121.7603,2.8
Puget Sound Lowlands,47.2529,-122.4443,1.9